google_place_url,business_name,business_website,business_phone,intl_phone,type,sub_types,full_address,latitude,longitude,rating,user_ratings_total,google_id
https://maps.google.com/?cid=7920065465014337082,Taxis Coop Québec,http://taxicoop-quebec.com/,(418) 525-5191,+1 418-525-5191,,"establishment,point_of_interest","496 2e Avenue, Québec, QC G1L 3B1, Canada",46.822525,-71.22820279999999,3.1,1417,ChIJn1qlmBOWuEwROr4EAJS56W0
https://maps.google.com/?cid=13696997013889699797,Taxi Laurier,http://taxilaurier.ca/,(418) 651-2727,+1 418-651-2727,,"car_rental,establishment,point_of_interest,taxi_stand","3164 Chem. des Quatre-Bourgeois, Québec, QC G1W 2K5, Canada",46.7683269,-71.30926339999999,3,435,ChIJTyu9oNaQuEwR1U973jaCFb4
https://maps.google.com/?cid=17682911598900484443,Taxi Coop Sainte-Foy Sillery,http://www.taxicoopstefoysillery.com/,(418) 653-7777,+1 418-653-7777,,"establishment,point_of_interest","2631 Bd du Versant N, Québec, QC G1V 1A3, Canada",46.7866595,-71.301,3,261,ChIJextf0vlXQCgRWxkZP2lSZvU
https://maps.google.com/?cid=15439799041400762562,Teo Taxi,https://teo.taxi/,(514) 836-0000,+1 514-836-0000,,"establishment,point_of_interest","2901 Rue Rachel E bureau 20, Montreal, QC H1W 4A4, Canada",45.541791,-73.562075,4.2,1541,ChIJndreKXwayUwRwvAbsmwvRdY
https://maps.google.com/?cid=15645782149822847537,Azul Taxi,http://azultaxi.com/,(418) 522-8123,+1 418-522-8123,,"establishment,point_of_interest","619 Rue de Nantes, Québec, QC G1X 1A3, Canada",46.7802758,-71.3213566,4.8,31,ChIJO82-04-XuEwRMZpWafj7INk
https://maps.google.com/?cid=17196013104339996158,Taxi Nomade,https://www.taxinomade.com/,(418) 476-6765,+1 418-476-6765,,"establishment,point_of_interest","3291 Ch Ste-Foy, Québec, QC G1X 3E1, Canada",46.7701737,-71.31847929999999,4.1,82,ChIJK_l-TiuRuEwR_s0lXc-CpO4
https://maps.google.com/?cid=7149164555844598395,Taxi Yallo Québec,https://taxiyallo.com/,(418) 624-9999,+1 418-624-9999,,"establishment,point_of_interest","320 Pierre-Bertrand Blvd #104, Québec City, QC G1M 2C8, Canada",46.8150006,-71.263558,4.5,41,ChIJaSYZpuyXuEwRezruH0nvNmM
https://maps.google.com/?cid=17700278096947185549,Alfred taxi,http://alfredtaxi.ca/,(418) 622-8622,+1 418-622-8622,,"establishment,point_of_interest","suite 215, 710 Rue Bouvier, Québec City, QC G2J 1C2, Canada",46.8346734,-71.2738097,4.1,61,ChIJz9iAMg2XuEwRjQcqKiYFpPU
https://maps.google.com/?cid=7611109488299621,Guimont Taximètre Inc,,(418) 525-9570,+1 418-525-9570,,"establishment,point_of_interest","597 Rue, Québec, QC G1J 2W6, Canada",46.8225233,-71.2219964,4.1,48,ChIJXUif7Q2WuEwRZY5lhUMKGwA
https://maps.google.com/?cid=4012654220128891008,Taxi SF,,,,,"establishment,point_of_interest","2793 Rue Laprade #2795, Québec, QC G1V 1C1, Canada",46.7807912,-71.3062594,5,2,ChIJD3RILACXuEwRgDBB1cDPrzc
https://maps.google.com/?cid=15640010706809728846,Taxi Coop Beauport,https://www.taxicoopbeauport.ca/,(418) 661-7711,+1 418-661-7711,,"establishment,point_of_interest","710 Rue Bouvier, Québec, QC G2J, Canada",46.8351338,-71.2724944,2.9,210,ChIJoWgWesy9uEwRTi-znt96DNk
https://maps.google.com/?cid=16885893835277874661,Taxi 4000 Inc.,https://www.taxilevis.ca/,(418) 833-4000,+1 418-833-4000,,"establishment,point_of_interest","158 Rue Wolfe, Lévis, QC G6V 3Z4, Canada",46.8148085,-71.180115,4.1,171,ChIJVVVVpamVuEwR5TWyVvq-Vuo
https://maps.google.com/?cid=13077972977662314017,Taxi Lévis 9000,http://www.taxi9000.ca/,(418) 833-9000,+1 418-833-9000,,"establishment,point_of_interest","5955 Rue Saint-Laurent #203, Lévis, QC G6V 3P5, Canada",46.8094764,-71.18686819999999,3.9,180,ChIJgcRbAamVuEwRIUa4EyJLfrU
https://maps.google.com/?cid=12507183834960382242,Taxi Lac-Beauport,https://www.taxilacbeauport.com/,(418) 446-7054,+1 418-446-7054,,"establishment,point_of_interest","20855 Boulevard Henri-Bourassa, Québec, QC G3B 2C5, Canada",46.9379094,-71.31719249999999,2.9,21,ChIJM0SCFXCkuEwRIklSl25xkq0
https://maps.google.com/?cid=7331033411789475143,Taxi Coop Montréal,https://www.taxi-coop.com/?utm_medium=referral&utm_source=gmb&utm_campaign=lnk-gmb,(514) 725-9885,+1 514-725-9885,,"establishment,point_of_interest","Ouvert jour et nuit, 3822 Rue Dandurand, Montréal, QC H1X 1P2, Canada",45.55706199999999,-73.57266849999999,3,1374,ChIJv-QLMgAcyUwRR0076gsQvWU
https://maps.google.com/?cid=818854919331503877,Taxi Alvin Tours,,(418) 271-2625,+1 418-271-2625,,"establishment,point_of_interest","1567 Boulevard Jean-Talon O #8, Québec, QC G1G 4K3, Canada",46.8668017,-71.2881434,3,4,ChIJlfixw4q9uEwRBd9V7TUoXQs
https://maps.google.com/?cid=11988473315721835546,Beauport Taxi suprême,https://636454d072977.site123.me/,(581) 979-1999,+1 581-979-1999,,"establishment,point_of_interest","3145 Rue St Georges Côté, Québec, QC G1E 3N4, Canada",46.8469074,-71.2068736,4,10,ChIJ0S3-r9y9uEwRGnTZhvacX6Y
https://maps.google.com/?cid=17582556393648490532,Taxi Accessible,http://www.taq.qc.ca/taqwebsite.htm,(418) 641-8294,+1 418-641-8294,,"establishment,point_of_interest","206 2e Rue, Québec, QC G1L 4Z1, Canada",46.820908,-71.2253544,2.6,14,ChIJsaOOkRKWuEwRJAixNuLJAfQ
https://maps.google.com/?cid=3149701489571424071,TAXI 99,https://www.taxi-99.com/,(418) 832-9999,+1 418-832-9999,,"establishment,point_of_interest","3357 Av. des Églises, Charny, QC G6X 1W5, Canada",46.7134799,-71.2714917,4,50,ChIJQRTkLyOSuEwRR2dsItH8tSs
https://maps.google.com/?cid=4164005193214678900,Taxi Charny,http://www.taxi-charny.com/,(418) 832-2000,+1 418-832-2000,,"establishment,point_of_interest","3124 Av. des Églises, Charny, QC G6X 1V7, Canada",46.710427,-71.275375,4.1,56,ChIJbwTlsyOSuEwRdFdxUKmEyTk
https://maps.google.com/?cid=8142988697783557448,Limousine A-1 Inc,https://www.limousinequebec.com/,(418) 523-5059,+1 418-523-5059,,"establishment,point_of_interest","160 Bd des Cèdres, Québec, QC G1L 1M9, Canada",46.8332274,-71.2492687,4.5,26,ChIJEzIt1jGWuEwRSN1oxRO1AXE
https://maps.google.com/?cid=6507169288059926616,Taxi Coop de la Mauricie,http://taxiscoopmauricie.com/,(819) 378-5444,+1 819-378-5444,,"establishment,point_of_interest","395 Rue Barkoff, Trois-Rivières, QC G8T 2A5, Canada",46.37364729999999,-72.5546686,3.1,558,ChIJmR78Q7bIx0wRWLgktP0bTlo
https://maps.google.com/?cid=3224801105214978402,Taxi Lévis,http://www.taxi-levis.ca/,(418) 833-0030,+1 418-833-0030,,"establishment,point_of_interest","1200 Boulevard Alphonse-Desjardins C.P 46032, Lévis, QC G6V 8S3, Canada",46.7963976,-71.1711047,3.8,80,ChIJwc3Mc7-VuEwRYjmg-4TLwCw
https://maps.google.com/?cid=13883244414859094932,Limo Group Quebec,https://limoquebec.com/,(418) 847-9190,+1 418-847-9190,,"establishment,point_of_interest","1240 Bd Charest O suite 105, Québec City, QC G1N 2E3, Canada",46.8009157,-71.2553946,4.8,71,ChIJ4WvIwL-YuEwRlCuaHT0xq8A
https://maps.google.com/?cid=12146673161686687556,D2S Limousine,http://www.d2slimousine.com/,(855) 418-5466,+1 855-418-5466,,"establishment,point_of_interest","2313 Bd du Versant N, Québec, QC G1N 4C2, Canada",46.79179329999999,-71.2863413,4.9,50,ChIJrTfs-j-XuEwRRB8bfeKmkag
https://maps.google.com/?cid=3536901098055511714,Airport Québec City,https://www.aeroportdequebec.com/en,,,,"airport,establishment,point_of_interest","Québec City, QC G2G 0C1, Canada",46.7915101,-71.3840247,4.6,435,ChIJ5z7gGsaZuEwRoq5JM8-YFTE
https://maps.google.com/?cid=1343982592918353863,Coop Taxi de l'Ouest,https://taxiwestisland.com/,(514) 636-6666,+1 514-636-6666,,"establishment,point_of_interest","570 Av. Marshall, Dorval, QC H9P 1C8, Canada",45.4510691,-73.7367584,3.9,459,ChIJp1rQfiYWyUwRx_c0KwzJphI
https://maps.google.com/?cid=8887952692014457880,Taxi Ste Foy et Rive Sud,,(418) 834-6666,+1 418-834-6666,,"establishment,point_of_interest","1160 R. de Courchevel, Saint-Romuald, QC G6W 0P2, Canada",46.7320214,-71.26472030000001,2.2,10,ChIJqb2g6fWTuEwRGKT_C-JZWHs
https://maps.google.com/?cid=10659603906291839279,TAXI Rafael Vega,,(581) 443-0713,+1 581-443-0713,,"establishment,point_of_interest","Rue de la Gare-du-Palais, Québec, QC G1K 8W4, Canada",46.8183254,-71.21372699999999,,,ChIJpx1u--2XuEwRLzHkmEaF7pM
https://maps.google.com/?cid=6609628177068698352,Taxi Van Lévis,,(418) 907-1313,+1 418-907-1313,,"establishment,point_of_interest","885 Rue Hypolite Bernier, Lévis, QC G6V 7M8, Canada",46.8165404,-71.14856309999999,5,5,ChIJHS605XmVuEwR8KqXx84duls
https://maps.google.com/?cid=15191229989814581130,Taxi Saint-Ro,,(418) 520-6000,+1 418-520-6000,,"establishment,point_of_interest","2040 Bd Guillaume-Couture CP 43080, Lévis, QC G6W 7N2, Canada",46.7525158,-71.2379037,3.5,13,ChIJKRjdDaCTuEwRircobDAX0tI
https://maps.google.com/?cid=5983814128210663683,Taxi Hochelaga Inc,https://teo.taxi/filiales/taxi-hochelaga,(514) 836-0000,+1 514-836-0000,,"establishment,point_of_interest","2901 Rue Rachel E bureau 20, Montreal, QC H1W 4A4, Canada",45.5418023,-73.56207979999999,3.2,463,ChIJQ9CTGX4eyUwRA9n1-T7HClM
https://maps.google.com/?cid=5588776830392680758,Bonjour Taxi - Grand Montréal,,(514) 545-6399,+1 514-545-6399,,"establishment,point_of_interest","4546 Rue Plinguet, Montréal, QC H1R 3H4, Canada",45.58227170000001,-73.6127315,4.4,130,ChIJxzkSF9QfyUwRNkF9qOpSj00
https://maps.google.com/?cid=5367021003611155923,Limousine Québec Inc.,https://limousinequebec.ca/,(581) 814-5464,+1 581-814-5464,,"establishment,point_of_interest","912 Grande Allée O, Québec, QC G1S 1C5, Canada",46.7946921,-71.2373822,4.8,43,ChIJvR9PV76XuEwR061Nxip9e0o
https://maps.google.com/?cid=16171087587189914182,Limousine Atmosphère,http://limousineatmosphere.com/,(418) 955-3459,+1 418-955-3459,,"establishment,point_of_interest","1095 Chem. de la Canardière, Québec, QC G1N 2M4, Canada",46.8310228,-71.2250537,4.1,73,ChIJc1ogjvSWuEwRRvougns-a-A
https://maps.google.com/?cid=8419433566402167487,Taxi Levis Independent,https://m.facebook.com/profile.php?id=1460763894224408&ref=bookmarks,(418) 833-6655,+1 418-833-6655,,"establishment,point_of_interest,taxi_stand","4977 Rue Saint-Georges, Lévis, QC G6W 1B9, Canada",46.7913654,-71.1879216,5,2,ChIJbUHPa02UuEwRv8JmdzjW13Q
https://maps.google.com/?cid=13515203282653665498,JALAL TAXIMÈTRE,,(581) 985-5566,+1 581-985-5566,,"establishment,point_of_interest","1296 Rue du Blé, Lévis, QC G6Y 0E7, Canada",46.8110185,-71.13980459999999,4.2,5,ChIJ1XTGf0CVuEwR2tjDacelj7s
https://maps.google.com/?cid=16170372173053690077,Taxi 9001,,(418) 952-9001,+1 418-952-9001,,"establishment,point_of_interest","1123 Rue du Brulis, Saint-Jean-Chrysostome, QC G6Z 2Z9, Canada",46.7081544,-71.2022032,2.9,16,ChIJl85MN1mTuEwR3QC6LNGzaOA
https://maps.google.com/?cid=9047314684302077015,1er arrêt d’autobus,,,,,"establishment,point_of_interest","2519 Bd des Capucins, Québec, QC G1J 3R8, Canada",46.82893809999999,-71.2250214,4,1,ChIJ7-DVMPmXuEwRVywAScWEjn0
https://maps.google.com/?cid=6729209726330417770,Québec City Jean Lesage International Airport,https://aeroportdequebec.com/fr,(418) 640-2700,+1 418-640-2700,,"airport,establishment,point_of_interest","505 Rue Principale, Québec, QC G2G 0J4, Canada",46.79086849999999,-71.3885945,4.2,1654,ChIJ8xZM2YWZuEwRajIH3Zf0Yl0
https://maps.google.com/?cid=2040517627057507307,Station - Taxi Coop,http://www.taxicoop-quebec.com/,(418) 525-5191,+1 418-525-5191,,"establishment,point_of_interest","94 Rue de Verdun, Québec, QC G1N 3N3, Canada",46.8085754,-71.2509243,2.4,111,ChIJc_0zKlyWuEwR64uvfvhfURw
https://maps.google.com/?cid=3177148230730064487,TAXI MONTRÉAL | CAB MONTREAL,https://www.allotaximontreal.online/,(438) 989-8080,+1 438-989-8080,,"establishment,point_of_interest","685 Rue Saint-Maurice, Montréal, QC H3C 1L4, Canada",45.4998421,-73.5591732,4.8,34,ChIJH_J9f7gbyUwRZyJti3t_Fyw
https://maps.google.com/?cid=16268909082824431920,Taxi Champlain,https://taxichamplain.com/,(514) 271-1111,+1 514-271-1111,,"establishment,point_of_interest","5775 Rue Saint-André, Montréal, QC H2S 2K2, Canada",45.5335849,-73.59557509999999,2.8,683,ChIJuafbGGQZyUwRMFngTJ3GxuE
https://maps.google.com/?cid=9191517103277619514,Atlas Taxi,http://www.atlastaxi.qc.ca/,(514) 485-8585,+1 514-485-8585,,"establishment,point_of_interest","2194 Av. Regent, Montréal, QC H4A 2R1, Canada",45.46791109999999,-73.6151057,3.2,644,ChIJZX0QPrcQyUwROjnKTxvUjn8
https://maps.google.com/?cid=6395325369408520073,Taxi Montréal Pro,,(514) 565-4808,+1 514-565-4808,,"establishment,point_of_interest","6330 R. Drolet, Montréal, QC H2S 2S7, Canada",45.5324996,-73.6044437,4.8,22,ChIJ5URn6dEZyUwRiX-jIorCwFg
https://maps.google.com/?cid=16118812146299650085,Taxi service Montreal,https://www.taximontrealxpress.com/,(438) 448-5378,+1 438-448-5378,,"establishment,point_of_interest","3592 Rue Saint-Germain, Montréal, QC H1W 2V5, Canada",45.5453058,-73.5595664,4.7,13,ChIJu2SQLLQbyUwRJUBx9T6Gsd8
https://maps.google.com/?cid=14972262518809528050,Taxi Montreal / Service 24H/24,https://alliancetaxicab.com/,(438) 388-0762,+1 438-388-0762,,"establishment,point_of_interest","906 Rue Agnès, Montréal, QC H4C 1B7, Canada",45.4801564,-73.5875046,4.2,5,ChIJRaIz6_MbyUwR8oaJNW8pyM8
https://maps.google.com/?cid=6706268061219631666,Taxi Downtown,,(514) 565-6052,+1 514-565-6052,,"establishment,point_of_interest","1750 Rue Sanguinet, Montréal, QC H2X 3G3, Canada",45.51417499999999,-73.564623,4.3,11,ChIJl1HwyWEbyUwRMjKLNUVzEV0
https://maps.google.com/?cid=6689083652266902173,Taxi Leo,https://leo-taxi.ca/,(514) 665-6455,+1 514-665-6455,,"establishment,point_of_interest","4000 Maisonneuve Blvd W, Westmount, QC H3Z 3M5, Canada",45.48882270000001,-73.5863509,4.8,50,ChIJFdkiRR5Uu0kRncI9NiRm1Fw
https://maps.google.com/?cid=13855048069774172611,Service Taxi Mtl,https://taxiverdunmontreal.online/,(514) 552-4883,+1 514-552-4883,,"establishment,point_of_interest","200 Rue de Gaspé, Verdun, QC H3E 1E6, Canada",45.4526334,-73.5466577,4.4,19,ChIJed1mdAARyUwRw-HZ8M8ER8A
https://maps.google.com/?cid=1536433694001012318,Hypra Taxi,https://hypra.ca/,(514) 312-3003,+1 514-312-3003,,"establishment,point_of_interest","571 Bd Lebeau, Montréal, QC H4N 1S7, Canada",45.5279073,-73.6625495,3.2,288,ChIJqUMqpAwZyUwRXh7f502CUhU
https://maps.google.com/?cid=6120772632642775529,Taxi Pronto,,(438) 818-3137,+1 438-818-3137,,"establishment,point_of_interest","3366 Rue Bressani, Montréal, QC H1Z 1H3, Canada",45.5754565,-73.6324593,4.1,83,ChIJ3zof3gMfyUwR6emat0da8VQ
https://maps.google.com/?cid=17189789195400449074,The West Island & Airport Taxi,http://taximtlwest.com/,(514) 436-8077,+1 514-436-8077,,"establishment,point_of_interest","9880 Boul Gouin O O, West island, QC H8Y 3H3, Canada",45.5060595,-73.79313619999999,4.5,102,ChIJpT9bKrZdBq8RMgyxozJmju4
https://maps.google.com/?cid=7046242191259441404,ici taxi Montreal,https://www.icitaximontreal.com/,(514) 515-4232,+1 514-515-4232,,"establishment,point_of_interest","2025 Bd Rosemont, Montréal, QC H2G 1T2, Canada",45.5428545,-73.5896453,3.3,58,ChIJpXTtLoIZyUwR_Jhju_BHyWE
https://maps.google.com/?cid=17543398345479945265,Taxi Coop de l'Est,https://www.taxicoopdelest.ca/,(514) 352-6000,+1 514-352-6000,,"car_rental,establishment,point_of_interest","6610 Bd des Galeries d'Anjou #203, Anjou, QC H1M 2T4, Canada",45.5947524,-73.555857,3.1,503,ChIJj7Rc6H4eyUwRMfyBp9irdvM
https://maps.google.com/?cid=11463803449078854641,Black City Cars - Airport Transfer Service,https://blackcitycars.com/,(514) 762-3512,+1 514-762-3512,,"airport,establishment,point_of_interest","1009 Rue Saint-Ferdinand, Montreal, QC H4C 2T5, Canada",45.4788723,-73.5904469,5,52,ChIJOwFXqQIRyUwR8TM-xX-cF58
https://maps.google.com/?cid=7975538117464189462,Taxi cote des neiges,,(514) 545-6126,+1 514-545-6126,,"establishment,point_of_interest","3505 Av. Linton #14, Montréal, QC H3S 1T1, Canada",45.501553,-73.6306476,5,9,ChIJnxm1CcEZyUwRFmoKYKnNrm4
https://maps.google.com/?cid=12787352165720155458,Publicité TAXI Montréal,https://agency.taxi/,(514) 842-8294,+1 514-842-8294,,"establishment,point_of_interest","500 Rue Saint-Jacques #1410, Montréal, QC H2Y 1S1, Canada",45.5014664,-73.5599489,3.6,53,ChIJJQV-iUUayUwRQmWSXwvNdbE
https://maps.google.com/?cid=9733095115697453377,Radio taxi union inc,https://www.radiotaxiunion.com/,(450) 679-6262,+1 450-679-6262,,"establishment,point_of_interest","1605 Rue Verchères, Longueuil, QC J4K 2Z6, Canada",45.5131871,-73.497321,3.1,631,ChIJE40huC0byUwRQXk8iHDmEoc
https://maps.google.com/?cid=12332662567956806374,Co-Op Laval,http://www.taxilaval.com/?utm_medium=referral&utm_source=gmb&utm_campaign=lnk-gmb,(450) 688-8700,+1 450-688-8700,,"establishment,point_of_interest","4405 Blvd. Saint-Martin O, Laval, QC H7T 1C5, Canada",45.5485409,-73.76967410000002,3.4,1023,ChIJAyr3Hp8jyUwR5nrSqUNrJqs
https://maps.google.com/?cid=6696637536323606504,Taxi Newman Lafleur 1994 Inc,,(514) 363-5111,+1 514-363-5111,,"establishment,point_of_interest","6385 Bd Monk, Montréal, QC H4E 3H8, Canada",45.4547402,-73.5947745,3.3,83,ChIJJU_9Lu4QyUwR6Jcd5ls871w
https://maps.google.com/?cid=4266008606963414272,Taxi Bonjour,https://taxi-bonjour.com/,(514) 222-6666,+1 514-222-6666,,"establishment,point_of_interest","5805 Rue de Mésy #8, Montréal, QC H4J 1G2, Canada",45.5307521,-73.7181378,,,ChIJwShU3xsjyUwRADXQyjnoMzs
https://maps.google.com/?cid=9335120822260289600,Taxi Angrignon Enr,,(514) 364-1000,+1 514-364-1000,,"establishment,point_of_interest","582 90e Avenue, LaSalle, QC H8R 2Z7, Canada",45.42275919999999,-73.6420601,2.9,367,ChIJQQu3D08RyUwRQFAtou0CjYE
https://maps.google.com/?cid=16367831796338719573,Gingras Cellubel,http://www.gingrastaximetre2013.ca/,(514) 272-3924,+1 514-272-3924,,"establishment,point_of_interest","5844 Rue des Écores, Montréal, QC H2G 2J1, Canada",45.5447187,-73.58676919999999,4.3,68,ChIJk2QOd1kZyUwRVfscXEw4JuM
https://maps.google.com/?cid=6062018795730555891,Taxi Pontiac Hemlock,https://www.taxipontiac.ca/contact.asp,(514) 761-3633,+1 514-761-3633,,"establishment,point_of_interest","6385 Bd Monk, Montréal, QC H4E 3H8, Canada",45.4547596,-73.5947801,3.4,22,ChIJycCnOu4QyUwR89NCDfqdIFQ
https://maps.google.com/?cid=7338221182614243806,Montreal Limo service,https://www.montreallimoservices.ca/,(514) 463-1276,+1 514-463-1276,,"establishment,point_of_interest","1225 Blvd Robert-Bourassa, Montréal, QC H3B 3A7, Canada",45.5027211,-73.5685704,5,282,ChIJPSB557gDFoAR3gn4OEmZ1mU
https://maps.google.com/?cid=6563976163968193383,Mimo Limousine Car Service & Private Chauffeurs,https://www.mimolimousine.com/?utm_source=google&utm_medium=organic&utm_campaign=gbp,(514) 996-3223,+1 514-996-3223,,"establishment,point_of_interest","1500 Rue Saint-Louis Suite 413, Montreal, QC H4L 0A4, Canada",45.5073168,-73.67202569999999,5,193,ChIJk68_ojkYyUwRZ5N0L4vtF1s
https://maps.google.com/?cid=12232695706350983005,montrealtaxis,,,,,"establishment,point_of_interest","9001 Bd de l'Acadie, Montréal, QC H4N 3K1, Canada",45.5328923,-73.653841,,,ChIJt7SPFeYZyUwRXRd_7u5Dw6k
https://maps.google.com/?cid=15238329988036598986,Taxelco,http://www.taxelco.com/,(514) 273-1729,+1 514-273-1729,,"establishment,point_of_interest","2901 Rue Rachel E Office 20, Montréal, QC H1W 4A4, Canada",45.5417235,-73.5619712,2.2,131,ChIJeX7D0e0byUwRypwaU2NsedM
https://maps.google.com/?cid=12590931720677158941,Lyft Canada,,(514) 641-2859,+1 514-641-2859,,"establishment,point_of_interest","416 Blvd. De Maisonneuve Ouest, Montreal, QC H3A 1L2, Canada",45.5060817,-73.569716,2.9,36,ChIJkVxBsmkbyUwRHfAourD5u64
https://maps.google.com/?cid=9923884257995895318,SF CHAUFFEURS,https://www.sfchauffeurs.com/?utm_source=google&utm_medium=wix_google_business_profile&utm_campaign=13288090473493841290,(514) 378-6565,+1 514-378-6565,,"establishment,point_of_interest","1020, de la Montagne, Montreal, QC H3G 0H8, Canada",45.4974245,-73.5732752,4.8,43,ChIJv9L5Ko4byUwRFrLvVSe4uIk
https://maps.google.com/?cid=3561379113546537484,Gare Centrale,https://garecentrale.ca/,(888) 842-7245,+1 888-842-7245,,"establishment,point_of_interest,train_station,transit_station","895 Rue De la Gauchetière O, Montréal, QC H3B 4G1, Canada",45.5001121,-73.5665224,4.3,1276,ChIJH9C8sFwayUwRDNpvTW-PbDE
https://maps.google.com/?cid=1029878280345891895,Tour Express,https://tourexpress.ca/,(514) 228-2303,+1 514-228-2303,,"establishment,point_of_interest","1597 Rue St-Hubert, Montréal, QC H2L 3Z1, Canada",45.51677189999999,-73.5613315,4.6,954,ChIJX18L4Ya4PC0RNzTo5dbcSg4
https://maps.google.com/?cid=8508094744604472546,TAXI BOUCHERVILLE,http://boucherville.taxi/,(438) 942-4444,+1 438-942-4444,,"establishment,point_of_interest","410 Av. Lafleur Suite 26, LaSalle, QC H8R 3H6, Canada",45.4323954,-73.64813529999999,,,ChIJq_wqxcoWyUwR4nSEpxfTEnY
https://maps.google.com/?cid=1017685643564302989,Fairmont Le Château Frontenac,https://www.fairmont.com/frontenac-quebec/?goto=fiche_hotel&code_hotel=A572&merchantid=seo-maps-FR-A572&sourceid=aw-cen&utm_medium=seo+maps&utm_source=google+Maps&utm_campaign=seo+maps?goto=fiche_hotel&code_hotel=A572&merchantid=seo-maps-CA-A572&sourceid=aw-cen&utm_medium=seo+maps&utm_source=google+Maps&utm_campaign=seo+maps&y_source=1_MTIzNjE0MDAtNzE1LWxvY2F0aW9uLndlYnNpdGU=,(418) 692-3861,+1 418-692-3861,,"establishment,lodging,point_of_interest,tourist_attraction","1 Rue des Carrières, Québec, QC G1R 5J5, Canada",46.8120085,-71.20521839999999,4.7,25253,ChIJ7Vz9a9yVuEwRjUKqbbOLHw4
https://maps.google.com/?cid=5086338042138913251,Gare fluviale de Québec | Traverse Québec-Lévis,https://www.traversiers.com/fr/nos-traverses/traverse-quebec-levis/horaire,(877) 787-7483,+1 877-787-7483,,"establishment,point_of_interest","10 Rue des Traversiers, Québec, QC G1K 4B2, Canada",46.81201979999999,-71.2019214,4.5,520,ChIJ9YG0ztyVuEwR4-k-MYBNlkY
https://maps.google.com/?cid=14934951767565530238,Hertz Car Rental - Quebec City - 44 Cote Du Palais,https://www.hertz.com/us/en/location/canada/quebec/quebec/yqbc13?utm_campaign=gmb-Hertz-Car-Rental---Quebec-City---44-Cote-Du-Palais&utm_medium=gmb-websitelink&utm_source=Google,(418) 694-1224,+1 418-694-1224,,"car_rental,establishment,point_of_interest","44 Côte du Palais, Québec, QC G1R 4H8, Canada",46.8145164,-71.2108381,3.7,149,ChIJE9A-rN-VuEwRfvRV-4CbQ88
https://maps.google.com/?cid=15501341004745599023,Quebec City Ferry Terminal,,,,,"establishment,point_of_interest,transit_station","10 Rue des Traversiers, Québec, QC G1K 8L8, Canada",46.81183600000001,-71.201967,4.6,332,ChIJYTFtsAuWuEwRL-gOooPTH9c
https://maps.google.com/?cid=9993992962321292692,Sainte-Foy,http://www.viarail.ca/en/explore-our-destinations/stations/quebec/sainte-foy,(888) 842-7245,+1 888-842-7245,,"establishment,point_of_interest,train_station,transit_station","3255 Chem. de la Gare, Québec, QC G1W 3A8, Canada",46.75432379999999,-71.2976451,4.3,77,ChIJbxpcJCORuEwRlB3qFqbLsYo
https://maps.google.com/?cid=15312946628013996654,Orléans Express - Québec (Centre-ville),https://www.orleansexpress.com/fr/autobus-quebec/,(418) 525-3000,+1 418-525-3000,,"establishment,point_of_interest","320 Rue Abraham Martin, Québec, QC G1K 8N2, Canada",46.8186265,-71.21408699999999,4.3,458,ChIJK0gZvgqWuEwRbjpKo9ODgtQ
https://maps.google.com/?cid=4627378980689157789,Interlane - Quebec City,http://www.interlane.com/,(866) 338-2675,+1 866-338-2675,,"establishment,moving_company,point_of_interest","suite 400, 1020 Rue Bouvier, Québec, QC G2K 0K9, Canada",46.8308738,-71.2830721,5,43,ChIJse5iKKyXuEwRnR4WgarAN0A
https://maps.google.com/?cid=11953962617843079803,Lévis Ferry Terminal,https://www.traversiers.com/fr/nos-traverses/traverse-quebec-levis/accueil/,(877) 787-7483,+1 877-787-7483,,"establishment,point_of_interest","6001 Rue Laurier, Lévis, QC G6V 0P5, Canada",46.8107611,-71.1877307,4.6,3224,ChIJD52Ed8CVuEwRe9rVhqoB5aU
https://maps.google.com/?cid=9765268644508805600,Taxi Live Saint-Foy,,(418) 906-0349,+1 418-906-0349,,"establishment,point_of_interest","749 Av. du Château, Québec, QC G1X 3P4, Canada",46.7693822,-71.32693379999999,5,1,ChIJKc_U-z2RuEwR4Ck19Bc0hYc
https://maps.google.com/?cid=10689770255571363867,Gare du Palais,http://www.viarail.ca/en/explore-our-destinations/stations/quebec/quebec-city/station,(888) 842-7245,+1 888-842-7245,,"establishment,point_of_interest,train_station,transit_station","450 Rue de la Gare-du-Palais, Québec, QC G1K 3X2, Canada",46.817452,-71.2138514,4.4,293,ChIJq5wgJSORuEwRGyjeHWmxWZQ
https://maps.google.com/?cid=3562797707748965034,Taxi-Québec,http://www.taxiscoop-quebec.com/,(418) 522-2001,+1 418-522-2001,,"establishment,point_of_interest","975 8e Avenue, Québec, QC G1J 3M8, Canada",46.827987,-71.22546799999999,,,ChIJJdZisRCWuEwRqvrzgKOZcTE
https://maps.google.com/?cid=14024320034618932259,Taxi Montmorency Laval,https://taximontmorency.info/?utm_source=Business+Profile+SERP&utm_medium=organic&utm_campaign=Google&utm_id=Google+Business+Profile,(514) 757-5356,+1 514-757-5356,,"establishment,point_of_interest","555 Rue Lucien-Paiement, Laval, QC H7N 0A5, Canada",45.5583785,-73.7215326,4.8,242,ChIJJ4hRE9cfyUwRI_zad8RkoMI
https://maps.google.com/?cid=11748696161363825396,Taxi Le Boulevard | LAVAL,https://www.taxileboulevard.ca/,(450) 602-6587,+1 450-602-6587,,"establishment,point_of_interest","1500 Bd du Souvenir, Laval, QC H7N 5E3, Canada",45.5637244,-73.7175701,5,21,ChIJTxa7QFiWfKQR9BIWWOnAC6M
https://maps.google.com/?cid=5932441392047772911,TAXI BONHEUR,,(438) 823-2325,+1 438-823-2325,,"establishment,point_of_interest","96A Av. Sauriol, Laval, QC H7N 3B3, Canada",45.54932580000001,-73.7182661,4.9,33,ChIJ40LLLwAjyUwR79TUvwNEVFI
https://maps.google.com/?cid=12840299393807097459,H&M Taxi Laval,https://hmtaxilaval.ca/,(514) 298-4022,+1 514-298-4022,,"establishment,point_of_interest","474 66e Avenue, Laval, QC H7V 2L1, Canada",45.54212,-73.73152,4.5,53,ChIJ60Y24fSePCYRcx6JkUToMbI
https://maps.google.com/?cid=11074755887192892001,Taxi Cartier Laval,https://taxicartierlaval.site/,(579) 779-8161,+1 579-779-8161,,"establishment,point_of_interest","525 Rue Saint-Luc, Laval, QC H7N 4Y2, Canada",45.5705824,-73.69345100000001,5,5,ChIJa8py9EsjyUwRYWJMhs1vsZk
https://maps.google.com/?cid=13689358560348402661,TAXI LAVAL METROPOLITAN,,(438) 596-1364,+1 438-596-1364,,"establishment,point_of_interest","1199 Bd Lesage, Laval, QC H7E 2Z4, Canada",45.60861370000001,-73.66743459999999,5,1,ChIJmw0eT8whyUwR5fOE0BRf-r0
https://maps.google.com/?cid=3035363928271564558,Taxi Rapide Laval,https://taxilaval.site/,(514) 565-1013,+1 514-565-1013,,"establishment,point_of_interest","1025 Bd Chomedey, Laval, QC H7V 3R9, Canada",45.5465227,-73.7403011,5,1,ChIJKf8eYL0jyUwRDi-pJGnHHyo
https://maps.google.com/?cid=14932822562123290622,Alain Taxi Laval,https://alaintaxialaval.ca/,(450) 668-6016,+1 450-668-6016,,"establishment,point_of_interest","715 Boul. Laval, Laval, QC H7S 2K4, Canada",45.5661777,-73.71890239999999,2.7,19,ChIJv-UQ9esjyUwR_hdMtQALPM8
https://maps.google.com/?cid=18239345900788207170,TIA Taxi,,(579) 885-8886,+1 579-885-8886,,"establishment,point_of_interest,taxi_stand","2365 100e Avenue, Laval, QC H7T 0C3, Canada",45.5528224,-73.784143,4.6,19,ChIJf9CMSpU5z0wRQk7153UsH_0
https://maps.google.com/?cid=14745657727420474310,VIP TAXI TERREBONNE-- MASCOUCHE-RIVE NORD-repentigny-saint-lin-sainte-anne-des-plaines,https://viptaxiterrebonne.ca/,(450) 516-3131,+1 450-516-3131,,"establishment,point_of_interest","873 Rue Léveillé, Terrebonne, QC J6W 3Z3, Canada",45.7053958,-73.6271308,4.9,543,ChIJ_7g2ayjfyEwRxiNkxpMZo8w
https://maps.google.com/?cid=7485827432758714195,Taxi All,,(438) 921-0126,+1 438-921-0126,,"establishment,point_of_interest","732 Av. Ampère #41, Laval, QC H7N 6G7, Canada",45.5660909,-73.7113248,,,ChIJiyISBSkjyUwRUx91c2MA42c
https://maps.google.com/?cid=2719981266411902316,TAXI TURBO 24/7 DEVERROUILLAGE & BOOST,https://taxiturbo.ca/,(514) 558-8229,+1 514-558-8229,,"establishment,point_of_interest","2525 Chem. Laval, Montréal, QC H4L 2Z9, Canada",45.5215056,-73.7052798,5,1,ChIJl6o7EgIjyUwRbNUy_IxQvyU
https://maps.google.com/?cid=16008871556792395195,Taxi Amical,https://taxiamical.site/,(579) 378-8878,+1 579-378-8878,,"establishment,point_of_interest","421 Av. Yvon-Berger, Laval, QC H7L 4N8, Canada",45.5899856,-73.79005939999999,,,ChIJOe_OGF4nyUwRuyV3vdzvKt4
https://maps.google.com/?cid=923767518186855480,Bureau de taxi Alain taxi laval,https://alaintaxialaval.ca/,(450) 668-6016,+1 450-668-6016,,"establishment,point_of_interest","4 Mnt Major #201, Laval, QC H7N 4R8, Canada",45.5562487,-73.6806201,3,4,ChIJVd5wMcAZyUwROFyS2Knh0Qw
https://maps.google.com/?cid=12643646654839494841,Welcome taxi,,(438) 377-7507,+1 438-377-7507,,"establishment,point_of_interest","5180 Boulevard Notre Dame, Laval, QC H7W 1V7, Canada",45.5320528,-73.7778819,,,ChIJfZwr8UcjyUwRuZhDx6RBd68
https://maps.google.com/?cid=293580093860119320,Taxi Booster,https://taxibooster.ca/,(450) 444-8889,+1 450-444-8889,,"establishment,point_of_interest","5790 Av. Albanie, Brossard, QC J4Z 3K3, Canada",45.4785414,-73.4556924,4.7,15,ChIJHQ0vPpgFyUwRGIOoN4oBEwQ
https://maps.google.com/?cid=13818407931162119699,Kai Express limousine,,(514) 653-2111,+1 514-653-2111,,"establishment,point_of_interest","3330 Bd Cartier O, Laval, QC H7V 1J9, Canada",45.53990030000001,-73.731617,4.7,30,ChIJfc28TCex00ARE85b4szYxL8
https://maps.google.com/?cid=15049167991008556661,Link Limousines,https://linklimousines.com/,(514) 974-5466,+1 514-974-5466,,"establishment,point_of_interest","3030 Bd du Curé-Labelle, Laval, QC H7P 0H9, Canada",45.5675811,-73.7813211,4.5,316,ChIJjf51TR4hyUwRdXY-zY1i2dA
https://maps.google.com/?cid=3212375884644714177,Taxi Montreal Ouest | Airport,,(514) 565-5869,+1 514-565-5869,,"establishment,point_of_interest","5067 Rue de Savoie, Pierrefonds, QC H8Z 1C4, Canada",45.5100339,-73.8312342,5,2,ChIJT9Cpz0k7yUwRwYZH4dimlCw
https://maps.google.com/?cid=13635908915917884677,Lys Taxi,https://lystaxi.ca/,(450) 588-0004,+1 450-588-0004,,"establishment,point_of_interest","1040 de la, Rue de la Pinède, Terrebonne, QC J6W 5H2, Canada",45.7110658,-73.6373097,4.7,30,ChIJK7xWQjTryEwRBQ3esul6PL0
https://maps.google.com/?cid=4871695749636900971,XO LIMOUSINE,https://www.xolimousine.ca/,(438) 444-1211,+1 438-444-1211,,"establishment,point_of_interest","2976 B-3, Blvd. Saint-Martin O, Laval, QC H7T 0N6, Canada",45.5587378,-73.7436985,4.7,23,ChIJrcI4iBUjyUwRa0jjEnm9m0M
https://maps.google.com/?cid=4002470466259284472,Taxi Van Airport,,(514) 565-8219,+1 514-565-8219,,"establishment,point_of_interest","2535 Rue Modugno #502, Montrã©Al, QC H4R 3G7, Canada",45.5062221,-73.6998776,5,6,ChIJJzAIT8AZyUwR-HFg3a6hizc
https://maps.google.com/?cid=3306947062138428418,Charles Limousine,https://charleslimousine.com/,(514) 708-1333,+1 514-708-1333,,"establishment,point_of_interest","3755 Av. Jean-Béraud, Laval, QC H7T 0G2, Canada",45.5629491,-73.7662363,5,373,ChIJLYTA5moZyUwRAlzIAdWi5C0
https://maps.google.com/?cid=2343005830219742882,Taxi Montréal Nord,https://taximontrealnord.taxi/,(438) 238-6329,+1 438-238-6329,,"establishment,point_of_interest","9977 Av. de Belleville, Montréal, QC H1H 4Z3, Canada",45.5783676,-73.6378971,5,1,ChIJGdJVOp4fyUwRor7qiGMHhCA
https://maps.google.com/?cid=3654149583993786221,Hertz - Uber Laval,https://www.hertz.com/rentacar/rental-car-deals/uber-rentals?utm_campaign=gmb-Hertz---Uber-Laval&utm_medium=gmb-websitelink&utm_source=Google,(450) 978-7171,+1 450-978-7171,,"establishment,point_of_interest","1525 Boulevard des Laurentides, Laval, QC H7N 0H9, Canada",45.580538,-73.703717,4,4,ChIJG60vN-chyUwRbU8Xpq8ltjI
https://maps.google.com/?cid=2209236800306264979,Loyal Taxi,https://taxiloyal.com/,(819) 484-4444,+1 819-484-4444,,"car_rental,establishment,point_of_interest,taxi_stand","485 Bd des Affaires, Gatineau, QC J8R 3J8, Canada",45.5149034,-75.64338339999999,3.9,1112,ChIJdxQwnPkazkwRk7v5MirJqB4
https://maps.google.com/?cid=16961443007234307342,Taxi Loutaouais,https://www.taxiloutaouaish24.ca/,(819) 700-1616,+1 819-700-1616,,"establishment,point_of_interest","6 Rue de la Cime, Gatineau, QC J8Z 3N8, Canada",45.4729768,-75.7708482,4.9,28,ChIJHwWsaL2ePSQRDvU7rIwmY-s
https://maps.google.com/?cid=3539292793983709112,MM Taxi,https://mikche64.wixsite.com/website-948,(819) 665-4562,+1 819-665-4562,,"establishment,point_of_interest","105 Rue Garneau, Gatineau, QC J8X 1S4, Canada",45.4313656,-75.7194876,4.9,334,ChIJw3gg1cQDzkwRuK9_TQsYHjE
https://maps.google.com/?cid=12340200071340248429,A-Aylmer Georgis Taxi,https://www.aaylmergeorgistaxi.ca/,(819) 319-2777,+1 819-319-2777,,"establishment,point_of_interest","237 Rue Jean-Lesage, Gatineau, QC J9J 2S3, Canada",45.4179028,-75.8454539,4.9,544,ChIJ0U3bkgADzkwRbU18bZUyQas
https://maps.google.com/?cid=8861135744299411675,Pro Taxi - Gatineau,,(819) 700-3300,+1 819-700-3300,,"establishment,point_of_interest","36 Imp. de la Côte d'Or, Gatineau, QC J8R 4B4, Canada",45.50012359999999,-75.66379409999999,5,13,ChIJ1VHoTZUbzkwR26h72QIU-Xo
https://maps.google.com/?cid=2272506534582450876,Pro Taxi,,(819) 700-3331,+1 819-700-3331,,"establishment,point_of_interest","132 Bd Saint-Joseph, Gatineau, QC J8Y 3W8, Canada",45.4310832,-75.73310409999999,4.6,180,ChIJIbrHs64bzkwRvHqKJ6eQiR8
https://maps.google.com/?cid=11016738607572474420,Taxi Transit,http://www.legroupetransit.com/,(819) 779-2299,+1 819-779-2299,,"establishment,point_of_interest","165 Rue Jean-Proulx, Gatineau, QC J8Z 1T4, Canada",45.4624772,-75.7344332,3.6,152,ChIJw5nN4z4DzkwRNFqw92RR45g
https://maps.google.com/?cid=8315652571898565201,Regal Taxi,,(819) 777-5231,+1 819-777-5231,,"establishment,point_of_interest","165 Rue Jean-Proulx, Gatineau, QC J8Z 1T4, Canada",45.4623395,-75.73449719999999,2.2,422,ChIJHTNIjVMDzkwRUdKTt_QhZ3M
https://maps.google.com/?cid=11552771688857250117,Bob Taxi,https://bob-taxi.com/,(819) 561-1512,+1 819-561-1512,,"establishment,point_of_interest","756 Rue Saint-Louis, Gatineau, QC J8T 2S4, Canada",45.4704746,-75.6813322,3.3,330,ChIJC4sGBCUbzkwRRamGTaSwU6A
https://maps.google.com/?cid=4945452388511381576,Aylmer Ben Taxi,http://www.bentaxi.ca/,(819) 208-7392,+1 819-208-7392,,"establishment,point_of_interest","311 Rue des Framboisiers, Gatineau, QC J9J 0T6, Canada",45.413339,-75.8464651,5,130,ChIJgd3MInq_Ia0RSPjTxr7GoUQ
https://maps.google.com/?cid=610180804304244021,Taxi EW,,(819) 685-1111,+1 819-685-1111,,"establishment,point_of_interest","533 Ch McConnell, Gatineau, QC J9J 2W2, Canada",45.4130036,-75.8042794,4.7,152,ChIJL0lmfiYDzkwRNQ1RaTXMdwg
https://maps.google.com/?cid=12851451737535297962,XTAXI Hull,,(819) 639-9990,+1 819-639-9990,,"establishment,point_of_interest","15 Rue de l'Éclipse, Gatineau, QC J9A 2Y7, Canada",45.4393253,-75.77682829999999,4.4,98,ChIJB3rDBrYDzkwRqjne70OHWbI
https://maps.google.com/?cid=15791642511035455826,Aylmer Taxi,,(819) 684-7777,+1 819-684-7777,,"establishment,point_of_interest","420 Bd Wilfrid-Lavigne unité 12, Gatineau, QC J9H 6W7, Canada",45.3985546,-75.8359354,3.6,117,ChIJ3_q-P7UBzkwRUtk5MjIvJ9s
https://maps.google.com/?cid=12332289465728469450,MonTaxi Hull,https://www.montaxiservice.ca/,(873) 376-2227,+1 873-376-2227,,"establishment,point_of_interest","430 Bd Saint-Joseph, Gatineau, QC J8Y 3Y7, Canada",45.4446002,-75.73216459999999,4,96,ChIJzZftTUM_zCERyokJCO4XJas
https://maps.google.com/?cid=6849883961522221963,Taxi Soucy,,(819) 986-3332,+1 819-986-3332,,"establishment,point_of_interest","384 Ave. de Buckingham, Gatineau, QC J8L 2G7, Canada",45.59004909999999,-75.4170146,3.8,123,ChIJy2R1bAQ_zkwRi3MttyutD18
https://maps.google.com/?cid=17615713716049467077,MonTaxi,https://www.montaxiservice.ca/,(873) 376-2227,+1 873-376-2227,,"establishment,point_of_interest","23 Rue de Navarre, Gatineau, QC J8P 7T1, Canada",45.4822736,-75.6186361,4.6,102,ChIJD0RRJy8bzkwRxdYa7kqWd_Q
https://maps.google.com/?cid=269791364477975420,Taxi Transit,http://www.legroupetransit.com/,(819) 777-5231,+1 819-777-5231,,"establishment,point_of_interest,taxi_stand","500 Bd Gréber, Gatineau, QC, J8T 7W3, Gatineau, QC J8T 7W3, Canada",45.4888622,-75.7037195,5,5,ChIJDb3ykhEbzkwRfHstC9F9vgM
https://maps.google.com/?cid=8829474294565367466,Blue Line Taxi,http://www.bluelinetaxi.com/,(613) 238-1111,+1 613-238-1111,,"establishment,point_of_interest","455 Coventry Rd, Ottawa, ON K1K 2C5, Canada",45.4221423,-75.645729,2.7,1304,ChIJlQb_630FzkwRqu4CIReYiHo
https://maps.google.com/?cid=6345674916770465783,"Water Taxi, Eh? / Aqua Taxi?",http://www.watertaxieh.ca/,(819) 329-2413,+1 819-329-2413,,"establishment,point_of_interest,tourist_attraction,travel_agency","le quai au, 100 Rue Laurier, Gatineau, QC K1A 0M8, Canada",45.430006,-75.7070801,4.9,17,ChIJ6fL7l0kFzkwR98c1SrddEFg
https://maps.google.com/?cid=14946849370808368593,Transport adapté privé - Gatineau,http://www.tsmo.ca/,(819) 778-1602,+1 819-778-1602,,"car_rental,establishment,point_of_interest","11 Rue Connaught, Gatineau, QC J8Y 2E6, Canada",45.4404214,-75.734025,5,16,ChIJGQjEEcwFzkwR0b1Nmk_gbc8
https://maps.google.com/?cid=2930216570507945030,Au Feel de l'Eau,http://www.watertaxieh.ca/,(819) 329-2413,+1 819-329-2413,,"establishment,point_of_interest,tourist_attraction","555 Wellington St, Ottawa, ON K1R 1C5, Canada",45.42107679999999,-75.7100904,4.9,52,ChIJF3LSXKIEzkwRRuQWKHI4qig
https://maps.google.com/?cid=16871299665987910864,Executive Cabs,http://www.executivecabs.ca/,(613) 799-3353,+1 613-799-3353,,"establishment,point_of_interest","2415 Holly Ln Unit-202A, Ottawa, ON K1V 7P2, Canada",45.3784557,-75.6390656,4.8,30,ChIJ__-TOBYPzkwR0DxggqjlIuo
https://maps.google.com/?cid=13920214086810021324,TAXI MOTUS.Inc,,(819) 485-1010,+1 819-485-1010,,"establishment,point_of_interest","22 Rue d'Orléans #15, Gatineau, QC J8T 5V1, Canada",45.4811225,-75.6986676,1,1,ChIJd4Hb7jEbzkwRzC2zofWILsE
https://maps.google.com/?cid=6884303938080203056,TAG - Transport Aérien Gatineau,http://flytag.ca/,(819) 918-0466,+1 819-918-0466,,"establishment,point_of_interest","1735 Arthur-Fecteau, Gatineau, QC J8R 2Z9, Canada",45.5185918,-75.5590326,,,ChIJu_3z4k8RzkwRMOEXA_X1iV8
https://maps.google.com/?cid=11135845483962131781,Capital Taxi,https://www.capitaltaxi.com/,(613) 744-3333,+1 613-744-3333,,"establishment,point_of_interest","455 Coventry Rd, Ottawa, ON K1K 2C5, Canada",45.4220523,-75.6455477,3.1,67,ChIJAQCsNhUFzkwRRWUzqXd4ipo
https://maps.google.com/?cid=5076651329615994095,West-Way Taxi,http://www.westwaytaxi.ca/,(613) 727-0101,+1 613-727-0101,,"establishment,point_of_interest","11 Bentley Ave, Nepean, ON K2G 1E5, Canada",45.3322125,-75.72112829999999,2.6,323,ChIJeVh2X74HzkwR75xGrnzjc0Y
https://maps.google.com/?cid=2773669679880273759,Transport personnes agées Gatineau,,(819) 210-0395,+1 819-210-0395,,"establishment,point_of_interest","38 Bd Montclair, Gatineau, QC J8Y 2E6, Canada",45.4404451,-75.7340954,3.7,3,ChIJ_2fjy6MFzkwRX_-I2eANfiY
https://maps.google.com/?cid=10346741031465309062,Liberty Limousine Ottawa,https://www.liberty-limousine.ca/,(613) 552-6530,+1 613-552-6530,,"establishment,point_of_interest","508 Bd la Vérendrye O, Gatineau, QC J8P 6M3, Canada",45.4960241,-75.6723389,4.6,270,ChIJh4dwHAgbzkwRhtNyEyYCl48
https://maps.google.com/?cid=3484689626714268145,Best Taxi Woodpark,,(343) 303-6199,+1 343-303-6199,,"establishment,point_of_interest","2211 Fox Crescent, Ottawa, ON K2A 1H7, Canada",45.3687876,-75.77166729999999,5,1,ChIJsdUiutkHzkwR8eHKuMAaXDA
https://maps.google.com/?cid=6550811574519932416,Private Taxi Centretown,,(343) 301-6611,+1 343-301-6611,,"establishment,point_of_interest","134 Ottawa Regional Rd 31, Ottawa, ON K1P 6M6, Canada",45.4191589,-75.6997647,3,1,ChIJoyYwauMFzkwRACbHWWso6Vo
https://maps.google.com/?cid=5569482842496657001,Taxi service,,,,,"establishment,point_of_interest","Ottawa, ON K1P 1A5, Canada",45.4216182,-75.6979787,1,1,ChIJ-dBrohEFzkwRaWalCSPHSk0
https://maps.google.com/?cid=9873413676450825758,Airport Taxi Orleans Village,,(613) 801-4441,+1 613-801-4441,,"establishment,point_of_interest","St Joseph Blvd, Orléans, ON K1C 1H1, Canada",45.4643686,-75.5388676,5,2,ChIJORnc_bERzkwRHsZVWW1pBYk
https://maps.google.com/?cid=5534541225431937864,Coventry Connections,http://www.coventryconnections.com/,(613) 746-8740,+1 613-746-8740,,"establishment,point_of_interest","455 Coventry Rd, Ottawa, ON K1K 2C5, Canada",45.4220523,-75.6455477,3.3,35,ChIJl0yj830FzkwRSDOg2Oujzkw
https://maps.google.com/?cid=3755386748702624579,Enterprise Rent-A-Car,https://www.enterprise.ca/fr/location-voiture/emplacements/canada/qc/gatineau-centre-commercial-les-promenades-c320.html?mcid=yext:245709,(819) 243-3935,+1 819-243-3935,,"car_rental,establishment,point_of_interest","205 Bd Gréber, Gatineau, QC J8T 3R1, Canada",45.47359400000001,-75.7008182,3.5,207,ChIJXQhrhkYbzkwRQwuh3lnQHTQ
https://maps.google.com/?cid=9819030166393192599,Intelcom,https://intelcom.ca/fr/,(514) 807-6086,+1 514-807-6086,,"establishment,point_of_interest","485 Bd des Affaires, Gatineau, QC J8R 3J8, Canada",45.515083,-75.64414099999999,4.9,7894,ChIJGxyDz5sRzkwRlwC2sukzRIg
https://maps.google.com/?cid=2448845421750185777,Taxi Longueuil Service,https://taxilongueuilrivesud.online/,(514) 552-2504,+1 514-552-2504,,"establishment,point_of_interest","1890 Rue Adoncour, Longueuil, QC J4J 4Z7, Canada",45.54249249999999,-73.4730577,5,13,ChIJ_z6B8kgDyUwRMe9Cwe8L_CE
https://maps.google.com/?cid=13078502740219015431,Taxi Speedy,https://taxispeedy.ca/,(450) 209-3909,+1 450-209-3909,,"establishment,point_of_interest,taxi_stand","2441 Rue Cartier, Longueuil, QC J4K 4G2, Canada",45.5135335,-73.4780572,5,11,ChIJl6L2dCDwbkMRBzG6CPMsgLU
https://maps.google.com/?cid=13006920835550148073,Taxi Greenfield Park,https://www.taxigreenfieldparkrivesud.site/,(438) 788-3649,+1 438-788-3649,,"establishment,point_of_interest","36 Rue Regina, Longueuil, QC J4V 3A2, Canada",45.4777238,-73.4744462,5,2,ChIJzfcsHgcFyUwR6fWXGJbdgbQ
https://maps.google.com/?cid=3929795533760450868,Alpha Taxi Inc,https://www.alphataxi.ca/,(438) 528-0332,+1 438-528-0332,,"establishment,point_of_interest","1025 Rue Baker, Longueuil, QC J4V 3C2, Canada",45.49315470000001,-73.44206659999999,5,8,ChIJKzOcDbT_0kcRNFG1jTdwiTY
https://maps.google.com/?cid=2732559977509697571,Taxi Brossard Inc,https://www.taxibrossard.com/,(514) 815-9090,+1 514-815-9090,,"establishment,point_of_interest","3720 Rue Beaumont, Brossard, QC J4Z 2N7, Canada",45.4616031,-73.44658740000001,4.9,56,ChIJgQCnrW8FyUwRIzjqYtIA7CU
https://maps.google.com/?cid=9677060570761087734,Taxi Boucherville boucherville taxi,http://www.taxiboucherville.com/,(514) 660-6111,+1 514-660-6111,,"establishment,point_of_interest","163 de bresolette, Boucherville, QC J4B 6M7, Canada",45.5718683,-73.4383122,4.4,177,ChIJjWoOJScDyUwR9konXlHTS4Y
https://maps.google.com/?cid=5405111712409034622,Taxi STA,https://www.taxista.ca/,(514) 515-6684,+1 514-515-6684,,"car_rental,establishment,point_of_interest","386 Rue de Gentilly O, Longueuil, QC J4H 2A1, Canada",45.5315147,-73.49996100000001,5,6,ChIJ9U3ulGkbyUwRfp9xBXfQAks
https://maps.google.com/?cid=16257597298501094749,AirTaxiGo - Taxi Rive Sud - Aéroport,http://airtaxigo.ca/,(514) 714-5511,+1 514-714-5511,,"establishment,point_of_interest","1320 Rue Gay-Lussac 102 B, Boucherville, QC J4B 7G4, Canada",45.5709855,-73.43102499999999,4.9,53,ChIJYdhcCSkDyUwRXQ2CRpuWnuE
https://maps.google.com/?cid=3304870105543519013,Taxi Amical Longueuil Boucherville,https://taxiamical.online/,(438) 520-1451,+1 438-520-1451,,"establishment,point_of_interest","300 Rue Joliette #205, Longueuil, QC J4H 2G5, Canada",45.5316146,-73.51982459999999,,,ChIJoWUDIjQbyUwRJau63dlB3S0
https://maps.google.com/?cid=13966683239107266308,Taxi Chambly,https://chambly-taxi.square.site/,(450) 658-3000,+1 450-658-3000,,"establishment,point_of_interest","1306 Av. Bourgogne, Chambly, QC J3L 1X9, Canada",45.4529012,-73.2988041,4.5,609,ChIJFTtB_2-oyUwRBAdkRWig08E
https://maps.google.com/?cid=7327294281491386414,Taxi Brossard Rive Sud 24H/24,https://www.taxibrossardrivesud.site/,(438) 448-8529,+1 438-448-8529,,"establishment,point_of_interest","715 Av. Ponsard, Brossard, QC J4W 1V8, Canada",45.47374569999999,-73.4905004,5,3,ChIJf9Cqh-AFyUwRLpALzVPHr2U
https://maps.google.com/?cid=10674218537354433445,TAXI ÉCONOMIQUE 24/7 | RIVE SUD – AÉROPORT YUL,https://taxieco.ca/,(438) 367-7717,+1 438-367-7717,,"establishment,point_of_interest","5370 Boul Milan, Brossard, QC J4Z 3M5, Canada",45.4726162,-73.4421939,5,5,ChIJnQARmx4FyUwRpZPmjTRxIpQ
https://maps.google.com/?cid=11308265656423379100,Taxi service Boucherville Varennes,http://www.tsboucherville.com/,(438) 519-2898,+1 438-519-2898,,"establishment,point_of_interest","1058 Rue de la Ventrouze, Boucherville, QC J4B 5S9, Canada",45.5791234,-73.4461941,5,60,ChIJ236UUsjjyEwRnHDdZLMH75w
https://maps.google.com/?cid=6224875862088405801,Taxi Rive Sud,https://taxirivesud.ca/,(450) 231-1616,+1 450-231-1616,,"establishment,point_of_interest","5000 Bd Cousineau, Saint-Hubert, QC J3Y 3G9, Canada",45.5059646,-73.42945139999999,4.3,6,ChIJGzgVfRYD-g8RKdOuop0zY1Y
https://maps.google.com/?cid=10780702585881895741,gotaxi,http://getgotaxi.com/,(263) 999-4040,+1 263-999-4040,,"establishment,point_of_interest","6515 Rue Pinard, Brossard, QC J4W 2V1, Canada",45.4680585,-73.48050889999999,5,18,ChIJOdOdSAAFyUwRPSOgHOK_nJU
https://maps.google.com/?cid=3622966667843325465,Ali Taxi BROSSARD,https://alitaxibrossard.site/,(514) 446-1255,+1 514-446-1255,,"establishment,point_of_interest","5905 Rue Baillargeon, Brossard, QC J4Z 1T1, Canada",45.4747645,-73.45015459999999,4.9,54,ChIJSSyK_bQFyUwRGc7hNf1cRzI
https://maps.google.com/?cid=6744468212206517386,AirTaxiGo - Taxi Rive Sud - Transport Aéroport,https://airtaxigo.ca/,(514) 714-5511,+1 514-714-5511,,"establishment,point_of_interest","4405 Av. Thibault, Saint-Hubert, QC J3Y 7N1, Canada",45.5039364,-73.4438826,5,10,ChIJ2yxo_IAFyUwRirx78xoqmV0
https://maps.google.com/?cid=13171350714710718622,Taxi Saint Hubert,https://www.taxibrossard.com/,(514) 815-9090,+1 514-815-9090,,"establishment,point_of_interest","1615 Rue de Monaco, Saint-Hubert, QC J3Z 1A9, Canada",45.4993223,-73.4010332,4.8,26,ChIJ_ygsXPAFyUwRnnhrsrAJyrY
https://maps.google.com/?cid=4633656961480033303,Taxi Brossard Dix30 | Express,https://www.taxidix30express.online/,(450) 700-6772,+1 450-700-6772,,"establishment,point_of_interest","525 Av. de l'Equinoxe, Brossard, QC J4Z 0P7, Canada",45.4484515,-73.42647749999999,4.5,47,ChIJP3VgGkAPyUwRF4QI0HQOTkA
https://maps.google.com/?cid=342646215883982606,Taxi L Aeroport,,(514) 503-2452,+1 514-503-2452,,"establishment,point_of_interest","4272 Rue Legault, Longueuil, QC J3Y 3W8, Canada",45.514358,-73.435656,,,ChIJwTWYXgAFyUwRDodl_epSwQQ
https://maps.google.com/?cid=10529366381839220257,Taxi,https://www.taxi-now.ca/,(514) 568-7928,+1 514-568-7928,,"establishment,point_of_interest","2480 Av. Neuville, Brossard, QC J4Y 1E8, Canada",45.4499769,-73.4633668,5,2,ChIJM2bQ1QAFyUwRIX538-_SH5I
https://maps.google.com/?cid=379040381012931242,Taxi Aeroport Rapide,https://alitaxi.org/,(514) 503-2452,+1 514-503-2452,,"establishment,point_of_interest","1570 Pl. Socrate, Brossard, QC J4X 1M2, Canada",45.4543125,-73.4775957,5,3,ChIJ30nH07kPyUwRqvLN4TefQgU
https://maps.google.com/?cid=7519241622196326837,Taxi de la Montagne,,(450) 653-5555,+1 450-653-5555,,"establishment,point_of_interest","375 Rue William-Birks, Saint-Bruno-de-Montarville, QC J3V 1P3, Canada",45.5250525,-73.35593109999999,4,27,ChIJcwsvdUsByUwRtRFYr2q2WWg
https://maps.google.com/?cid=6557468085529718444,Taxi Boucherville / Sainte Julie / Rive Sud,https://taxibouchervillesaintejuliexpress.online/,(438) 448-1205,+1 438-448-1205,,"establishment,point_of_interest","1380 Bd de Montarville, Boucherville, QC J4B 8K6, Canada",45.5760647,-73.4181943,5,1,ChIJ8Z7vyB8DyUwRrK71F3vOAFs
https://maps.google.com/?cid=7733416436249767891,Brossard - Navette,,,,,"establishment,point_of_interest","1550 Av. Panama, Brossard, QC J4W 2W3, Canada",45.4692449,-73.4738977,5,3,ChIJF-oLYAAFyUwR06_VfkadUms
https://maps.google.com/?cid=9441566812255763013,Taxi Dix30,https://taxidix30.com/,(438) 340-4114,+1 438-340-4114,,"establishment,point_of_interest","9090 Boul. Leduc, Brossard, QC J4Y 0E9, Canada",45.4462178,-73.43913220000002,3.6,28,ChIJm1jebfoPyUwRRTqf__0uB4M
https://maps.google.com/?cid=5451241975788937862,Débarcadère Metro,,(450) 463-7311,+1 450-463-7311,,"establishment,parking,point_of_interest","100 Pl. Charles-Le Moyne, Longueuil, QC J4K 2T4, Canada",45.5231675,-73.5214187,4.2,283,ChIJB5inZxEbyUwRhiKZ77Gzpks
https://maps.google.com/?cid=15218675668930219244,Delvan Longueuil On Car and Truck Rentals,https://www.delvan.ca/,(450) 646-3838,+1 450-646-3838,,"car_rental,establishment,point_of_interest","370 Bd Taschereau, Longueuil, QC J4K 2W6, Canada",45.51865120000001,-73.5145664,4.7,476,ChIJO9_QFD0byUwR7Ex3juOYM9M
https://maps.google.com/?cid=10982905638578270271,Nic Inc.,,(438) 371-4945,+1 438-371-4945,,"establishment,point_of_interest","958 Rue Sainte-Hélène, Longueuil, QC J4K 3R9, Canada",45.5198573,-73.50524039999999,,,ChIJOW2nzDsbyUwRP7AXBX0ea5g
https://maps.google.com/?cid=5063105370551213297,Taxi de Sherbrooke - Taxi Navette,https://taxinavette.ca/,(819) 200-2200,+1 819-200-2200,,"establishment,point_of_interest","1300 Blvd du Mi-Vallon Suite 110, Sherbrooke, QC J1N 3B9, Canada",45.3770676,-71.97917890000001,4.8,660,ChIJGb-BK3Ozt0wR8dwTUILDQ0Y
https://maps.google.com/?cid=3720261259501057524,Taxis de Sherbrooke Inc,http://www.taxisherbrooke.com/,(819) 562-4717,+1 819-562-4717,,"car_rental,establishment,point_of_interest","1320 Rue Belvédère S, Sherbrooke, QC J1H 4E3, Canada",45.3861372,-71.89566220000002,2.9,697,ChIJl_8khiSzt0wR9DU1nOcFoTM
https://maps.google.com/?cid=5949886750704751033,Taxi Estrie Sherbrooke,https://taxiestrie.ca/,(873) 200-4840,+1 873-200-4840,,"establishment,point_of_interest","1111 Rue de Cambrai, Sherbrooke, QC J1H 2E9, Canada",45.389028,-71.904431,4.8,237,ChIJQVSyiB07IyoRuVGP1Xk-klI
https://maps.google.com/?cid=2827378234280238794,MonTaxi Sherbrooke,https://www.montaxiservice.ca/,(873) 376-2227,+1 873-376-2227,,"establishment,point_of_interest,taxi_stand","1035 Rue des Jardins-Fleuris, Sherbrooke, QC J1E 1J6, Canada",45.4192213,-71.8665991,4.7,330,ChIJv1y9PtM5smgRyt7xI4bdPCc
https://maps.google.com/?cid=9102585338042937941,Taxi Mondial Sherbrooke inc.,https://mondial.taxi/,(873) 999-9911,+1 873-999-9911,,"establishment,point_of_interest","1760 Rue George-Povey, Sherbrooke, QC J1E 4K5, Canada",45.4281871,-71.8555983,5,70,ChIJC0Jc9HWzt0wRVXK6KyPhUn4
https://maps.google.com/?cid=1099042378677204436,MonTaxi Sherbrooke,https://www.montaxiservice.ca/,(873) 376-2227,+1 873-376-2227,,"establishment,point_of_interest","1100 Rue Lamarche, Sherbrooke, QC J1H 0N6, Canada",45.3664075,-71.8981684,4.7,40,ChIJ_ROGjxBNtkwR1LUnbjiVQA8
https://maps.google.com/?cid=1450769651766876562,Taxi à Sherbrooke - Taxi Navette,https://taxinavette.ca/,(819) 200-2200,+1 819-200-2200,,"establishment,point_of_interest","20 Rue Wellington S Bureau 1, Sherbrooke, QC J1H 5C7, Canada",45.401031,-71.8899196,5,2,ChIJbz0xmd-zt0wRkll70E8rIhQ
https://maps.google.com/?cid=894239460165216780,Taxi Gendron,https://taxigendron.ca/,(819) 446-4440,+1 819-446-4440,,"establishment,point_of_interest","3505 Rue Galt O, Sherbrooke, QC J1H 0A5, Canada",45.37655849999999,-71.953818,4.5,52,ChIJ_cZdSARItkwRDOpIFw36aAw
https://maps.google.com/?cid=14065052331363829152,Taxi Bonjour Sherbrooke,http://bonjoursherbrooke.com/,(819) 943-1888,+1 819-943-1888,,"establishment,point_of_interest","480 Rue Florence #101, Sherbrooke, QC J1H 2J7, Canada",45.3910324,-71.89405359999999,4,4,ChIJcfZHZs-zt0wRoIU4VpMaMcM
https://maps.google.com/?cid=3699446510662571671,Diamond Taxi Jonquiere,,(418) 547-2121,+1 418-547-2121,,"car_rental,establishment,point_of_interest","3939 Rue de la Fabrique, Jonquière, QC G7X 3N3, Canada",48.4086217,-71.2564404,4.1,112,ChIJ9RXnhCEpwEwRl9aZPQATVzM
https://maps.google.com/?cid=5764254813234492151,Taxi Alma,http://www.taxialma.com/,(418) 319-3999,+1 418-319-3999,,"establishment,local_government_office,point_of_interest","447 Rue Sacré-Coeur O, Alma, QC G8B 1M4, Canada",48.54925249999999,-71.6480808,4.9,97,ChIJK9SCBeN36kwR93KtWTa__k8
https://maps.google.com/?cid=17035643000950248897,Taxi Diamond Arvida,https://www.facebook.com/Taxi.Diamond.Jonquiere/?fref=ts,(418) 548-2121,+1 418-548-2121,,"establishment,point_of_interest","2675 Bd du Royaume, Jonquière, QC G7S 3V3, Canada",48.4031725,-71.171377,3.6,30,ChIJe-fcAjwmwEwRwVUC-AzDauw
https://maps.google.com/?cid=406533041172190055,Taxi 2151,,(418) 544-2151,+1 418-544-2151,,"establishment,point_of_interest","292 Rue Joseph-Gagné S, La Baie, QC G7B 1T9, Canada",48.3282546,-70.9003219,3,25,ChIJ_07HbaoewEwRZxOHpKVLpAU
https://maps.google.com/?cid=5829496701872891477,TAXI SUD Saint-Romuald,http://taxisud.ca/,(581) 777-8889,+1 581-777-8889,,"establishment,point_of_interest","P 42001, 880 Av. Taniata Local 104, C, Lévis, QC G6Z 3T0, Canada",46.7253936,-71.20353229999999,4.6,20,ChIJhSwG9AqTuEwRVeZxRl2I5lA
https://maps.google.com/?cid=2202002586413579699,Taxi 2001 Chaudières Ouest,,(418) 836-2001,+1 418-836-2001,,"establishment,point_of_interest","Chemin Vire-Crêpes, 490 St-Joseph, Levis, QC G7A 1N5, Canada",46.7119935,-71.29976409999999,3.9,23,ChIJoX0dtpKRuEwRsz2sha8Vjx4
https://maps.google.com/?cid=15097892097374794546,Taxi Charny Ste-Foy,,(418) 832-6661,+1 418-832-6661,,"establishment,point_of_interest","8032 Av. des Églises, Charny, QC G6X 1X7, Canada",46.7228237,-71.2678924,3.7,3,ChIJBSPkey6SuEwRMrMz2d58htE
https://maps.google.com/?cid=16050272341073105419,Taxi 9000 Trois-Rivières,https://taxitroisrivieres.ca/,(819) 519-9000,+1 819-519-9000,,"establishment,point_of_interest","324 Rue des Forges Local 201, Trois-Rivières, QC G9A 2G8, Canada",46.34225,-72.54221749999999,4.5,184,ChIJX2TN-8XHx0wRC5Lw_acFvt4
https://maps.google.com/?cid=17779303986217341002,"Taxi 3R Trois-Rivières, Mauricie",http://taxi3r.ca/,(873) 387-3500,+1 873-387-3500,,"establishment,point_of_interest","4210 Rue Laurent Létourneau, Trois-Rivières, QC G8Y 6G3, Canada",46.3449831,-72.59141480000001,4.9,74,ChIJ8Vml9_3Px0wRStAr1MbGvPY
https://maps.google.com/?cid=2495235763316516554,Taxi trois-rivières express,https://taxitroisrivieres3r.com/,(819) 692-2722,+1 819-692-2722,,"establishment,point_of_interest","6730 Rue Lamarche, Trois-Rivières, QC G9B 2A2, Canada",46.32896650000001,-72.6059082,4.7,41,ChIJy-ybPV5iaYoRyuZU17TboCI
https://maps.google.com/?cid=11780071361530680735,JP EXPRESS TAXI,,(514) 943-4850,+1 514-943-4850,,"establishment,point_of_interest","Rue Lamarche, Trois-Rivières, QC G9B 2A2, Canada",46.3287567,-72.6063599,4.7,85,ChIJ95L9QADPx0wRn9XJZH04e6M
https://maps.google.com/?cid=14990701332001100441,Taxi Pointe Du Lac,,(819) 377-7770,+1 819-377-7770,,"establishment,point_of_interest","191 Rue Janvelly, Trois-Rivières, QC G9B 7R3, Canada",46.30816309999999,-72.69493299999999,3.6,15,ChIJe2kY6cTNx0wRmZLm82-rCdA
https://maps.google.com/?cid=8501356670569908618,GIL EXPRESS TAXI,,(450) 944-6617,+1 450-944-6617,,"establishment,point_of_interest","27 Bd Thibeau, Trois-Rivières, QC G8T 6X3, Canada",46.3646763,-72.5301203,4.9,12,ChIJf_01mxw6SaMRiok3itni-nU
https://maps.google.com/?cid=1840194538200572233,Taxi-Mercure,,(819) 380-7783,+1 819-380-7783,,"establishment,point_of_interest","745 Rue Prévost, Trois-Rivières, QC G8Y 2W4, Canada",46.365683,-72.5852396,2.5,8,ChIJibmgWODIx0wRSSEPxy6viRk
https://maps.google.com/?cid=8027966553014464466,Taxi hypra,,(418) 264-4690,+1 418-264-4690,,"establishment,point_of_interest","6910 Rue de Honfleur, Trois-Rivières, QC G9C 1L1, Canada",46.35949979999999,-72.6215677,4.5,2,ChIJS_vlGADJx0wR0u8kxQsRaW8
https://maps.google.com/?cid=11734963522538931117,TAXI 2020 NICOLET,,(819) 489-2020,+1 819-489-2020,,"establishment,point_of_interest","3295 Rue Charles Hébert, Nicolet, QC J3T1L8, Canada",46.2630597,-72.6080668,3.1,15,ChIJJ3wyq9Lbx0wRrYMZNSb32qI
https://maps.google.com/?cid=2130273147765532857,Taxi Shawi,https://www.taxishawi.com/,(819) 852-8294,+1 819-852-8294,,"establishment,point_of_interest","372 Av. de Grand-Mère, Grand-Mère, QC G9T 2P8, Canada",46.6164913,-72.6896026,4.2,67,ChIJw-eQtZJTxkwRuSgeJyRAkB0
https://maps.google.com/?cid=15630542186815031953,Orléans Express - Trois-Rivières,https://www.orleansexpress.com/fr/autobus-trois_rivieres/,(819) 374-2944,+1 819-374-2944,,"establishment,point_of_interest","275 Rue St Georges, Trois-Rivières, QC G9A 2K1, Canada",46.33973100000001,-72.54329129999999,4.1,402,ChIJnQ0gMAHGx0wRkQreA07X6tg
https://maps.google.com/?cid=7759061314833741118,Desaulniers Taxi,,(819) 228-2464,+1 819-228-2464,,"establishment,point_of_interest","32 Rue Notre-Dame N, Louiseville, QC J5V 1X5, Canada",46.2563775,-72.93950749999999,3.9,8,ChIJI6PxNqEuxkwRPvUjFSi5rWs
https://maps.google.com/?cid=16854373853671708144,LIMOUSINE ELEGANCE,https://limousineelegance.com/,(819) 519-5453,+1 819-519-5453,,"establishment,point_of_interest","1054 Rue Champflour, Trois-Rivières, QC G9A 1Z9, Canada",46.3485051,-72.5491381,,,ChIJX4vfaYXJx0wR8NW7u7jD5uk
https://maps.google.com/?cid=16757470635418222214,"MT Taxi Mascouche, Terrebonne.",http://www.taximt.ca/,(450) 416-0987,+1 450-416-0987,,"establishment,point_of_interest","1075 de la, Rue de la Boisselière, Terrebonne, QC J6X 1V8, Canada",45.70873650000001,-73.6698396,4.2,127,ChIJ46PlxZXeyEwRhn4kDsJ-jug
https://maps.google.com/?cid=7641305457087244305,Taxi des moulins (Taxi Terrebonne - Taxi Mascouche),http://www.taxidesmoulins.ca/,(450) 280-1333,+1 450-280-1333,,"establishment,point_of_interest","466 des seigneurs, Terrebonne, QC J6W 1T3, Canada",45.7037279,-73.632414,3.4,81,ChIJCzpvFMndyEwREWjw7dNeC2o
https://maps.google.com/?cid=5289370036346189987,Coop Taxi,https://cooptaxiterrebonne.ca/,(450) 471-4723,+1 450-471-4723,,"establishment,point_of_interest","3484 Bd des Entreprises, Terrebonne, QC J6X 3H5, Canada",45.7290366,-73.6807558,3,236,ChIJkSvd0GjeyEwRo3gCFgaeZ0k
https://maps.google.com/?cid=10224105014496627322,Taxi Rive Nord,http://taxirivenord.com/,(450) 581-2220,+1 450-581-2220,,"establishment,point_of_interest","500 Rue Notre-Dame #200, Repentigny, QC J6A 2T8, Canada",45.7410685,-73.442742,4.5,669,ChIJgYPGnOflyEwReopcT1dR440
https://maps.google.com/?cid=1832699359483837328,Taxi Sainte Anne des Plaines,,(450) 478-3111,+1 450-478-3111,,"establishment,point_of_interest","Sainte-Anne-des-Plaines, QC J5N 4C4, Canada",45.7596011,-73.8151201,5,2,ChIJFyBWEwDRyEwRkLseflsObxk
https://maps.google.com/?cid=4174611938540740051,Martel Taxi,,(450) 581-1410,+1 450-581-1410,,"establishment,point_of_interest","2 Rue Plourde, Charlemagne, QC J5Z 3E8, Canada",45.7164406,-73.4861734,4.1,60,ChIJC_ykMZ_myEwR013Tp3Az7zk
https://maps.google.com/?cid=3955317373547827741,Taxi Mascouche,https://taximascouche.ca/,(450) 280-1333,+1 450-280-1333,,"establishment,point_of_interest","1079 Av. Dupuis, Mascouche, QC J7K 3P5, Canada",45.7466905,-73.5980075,3.1,18,ChIJzwc21FW4cgMRHdI_8DEc5DY
https://maps.google.com/?cid=1993715814270077691,TAXI HITS INC.,https://taxihits.ca/,(514) 316-4487,+1 514-316-4487,,"establishment,point_of_interest","643 Rue Notre-Dame #212, Repentigny, QC J6A 2W1, Canada",45.75167,-73.43288,4.6,323,ChIJZcTNfYfvyEwR-4qlTPgZqxs
https://maps.google.com/?cid=10420884941180697372,Taxi Septmille,http://www.taxi7000.ca/,(450) 430-7000,+1 450-430-7000,,"establishment,point_of_interest","28 Chem. de la Côte-Saint-Louis O, Blainville, QC J7C 1C8, Canada",45.650395,-73.847982,2.9,267,ChIJad846dYnyUwRHPtKTKRrnpA
https://maps.google.com/?cid=1691931579122544740,Taxi L'Épiphanie | Aéroport & Déverrouillage à L'Épiphanie,http://www.taxilepiphanie.ca/,(450) 588-5353,+1 450-588-5353,,"car_rental,establishment,locksmith,point_of_interest,taxi_stand","255 Rue Notre Dame, L'Épiphanie, QC J5X 2W5, Canada",45.8468777,-73.4933832,4.8,77,ChIJwT4eb_HpyEwRZHDdlc7yehc
https://maps.google.com/?cid=13305049922317515222,Réservation TAXI,,(514) 290-8997,+1 514-290-8997,,"establishment,point_of_interest","82 Rue Vincent, Repentigny, QC J6A 4J1, Canada",45.7364323,-73.4545842,4,4,ChIJoZxIBxflyEwR1vmSQmkIpbg
https://maps.google.com/?cid=3556545027746792568,Ola Taxi,,(450) 751-7666,+1 450-751-7666,,"establishment,point_of_interest","1590 Rang Charles-Aubert, Terrebonne, QC J6W 3R4, Canada",45.6945309,-73.618537,,,ChIJzUHI-ZXfyEwReISH_ttiWzE
https://maps.google.com/?cid=10026005617639748439,TAXI PHENIX REPENTIGNY INC,http://www.phenixtaxi.ca/?utm_medium=referral&utm_source=gmb&utm_campaign=lnk-gmb,(450) 582-8020,+1 450-582-8020,,"establishment,point_of_interest","472 Rue Notre-Dame, Repentigny, QC J6A 2T5, Canada",45.7399369,-73.4449142,4.6,174,ChIJf3AyteDlyEwRV_N8O_2GI4s
https://maps.google.com/?cid=1696910995736620305,Taxi Repentigny | Aéroport | Bonjour Taxi,,(514) 545-6544,+1 514-545-6544,,"establishment,point_of_interest","41 Rue Laurier, Repentigny, QC J6A 4T3, Canada",45.74562660000001,-73.4442837,4.5,26,ChIJQ7s2e480R40REe1VXI-jjBc
https://maps.google.com/?cid=656234666041891692,TAXI HITS Repentigny,https://taxihits.ca/,(438) 508-9408,+1 438-508-9408,,"establishment,point_of_interest","961 Rue Einstein, Repentigny, QC J5Y 3W4, Canada",45.7701399,-73.4399815,,,ChIJRcWm_1TvyEwRbFu5rvNpGwk
https://maps.google.com/?cid=3542860270373664418,Taxi Central L'Assomption | Aéroport & Déverrouillage à L'Assomption,https://www.taxilepiphanie.ca/,(450) 588-5353,+1 450-588-5353,,"car_rental,establishment,locksmith,point_of_interest,taxi_stand","885 Bd Pierre Lesueur, L'Assomption, QC J5W 6H7, Canada",45.8420782,-73.4138368,4.9,36,ChIJVd2SCi_pyEwRonZ3IKXEKjE
https://maps.google.com/?cid=17723959045147822253,Taxi Lavaltrie Service,https://www.facebook.com/taxilavaltrie?mibextid=ZbWKwL,(438) 938-3193,+1 438-938-3193,,"establishment,point_of_interest","400 R. Georges-Estu, Lavaltrie, QC J5T 0J8, Canada",45.8721853,-73.3001257,4.8,37,ChIJUyTOQKSGnAYRrYibk9gm-PU
https://maps.google.com/?cid=7596846136209121676,Action Taxi Le Gardeur,,(450) 582-5111,+1 450-582-5111,,"establishment,point_of_interest","123 Rue Jetté, Repentigny, QC J5Z 4Y5, Canada",45.7700997,-73.45667019999999,1.7,3,ChIJR0n_bgLmyEwRjCELok9rbWk
https://maps.google.com/?cid=16249261308123983263,April Taxi,,,,,"establishment,point_of_interest","670 Rue de la Seigneurie Lachenaie Repentigny, L'Épiphanie, QC J5Z 4H4, Canada",45.7700643,-73.4605938,,,ChIJq6oOyQLmyEwRn606RRH5gOE
https://maps.google.com/?cid=13221760713637635930,Taxi La Prairie Candiac,http://www.taxicandiaclaprairie.ca/,(450) 444-2000,+1 450-444-2000,,"establishment,point_of_interest","785 Av. Jean-Baptiste-Varin, La Prairie, QC J5R 0E2, Canada",45.3967858,-73.4839336,4.4,215,ChIJOUaoAZYOyUwRWieWMVEhfbc
https://maps.google.com/?cid=12268193378650948310,Taxi Candiac,http://www.taxicandiaclaprairie.ca/,(450) 444-2000,+1 450-444-2000,,"car_rental,establishment,point_of_interest","1 Av. de Bavière, Candiac, QC J5R 5P4, Canada",45.387179,-73.5145641,4.5,184,ChIJUTHlXX4OyUwR1gJK0uBgQao
https://maps.google.com/?cid=6575985607600876273,Taxi Lg Inc.,,(514) 973-1515,+1 514-973-1515,,"establishment,point_of_interest","6040 Rue Verlaine, Brossard, QC J4W 1G1, Canada",45.469497,-73.4880359,,,ChIJ___7KWEFyUwR8aohrRGYQls
https://maps.google.com/?cid=17332971576685765412,Indépendant taxi drummond,https://www.independanttaxidrummond.com/,(819) 388-6356,+1 819-388-6356,,"establishment,point_of_interest","1330 Rue de Dublin, Drummondville, QC J2C 3A5, Canada",45.8898887,-72.5251585,4.9,67,ChIJU88s8fozqCMRJCNMotAVi_A
https://maps.google.com/?cid=4229872693684789414,Taxi Central,https://taxicentral.ca/,(819) 478-4646,+1 819-478-4646,,"establishment,point_of_interest","2330 Rue Sigouin, Drummondville, QC J2C 5Z4, Canada",45.8708505,-72.52197249999999,2.3,372,ChIJhT2rX2IRyEwRpuA02M2Gszo
https://maps.google.com/?cid=8909815155116279548,Taxi annour drummondville,https://www.taxinour.com/,(819) 817-0067,+1 819-817-0067,,"establishment,point_of_interest","1680 Allée du Crépuscule, Drummondville, QC J2A 0P1, Canada",45.84763410000001,-72.42347459999999,4.5,32,ChIJv7zPOYikKQgR_AYZZ60Fpns
https://maps.google.com/?cid=6355512579478043565,Taxi Cayes Drummondville,,(438) 686-0270,+1 438-686-0270,,"establishment,point_of_interest","2445 Rue Vivaldi, Drummondville, QC J2B 0L7, Canada",45.85636239999999,-72.5088197,4.7,3,ChIJXwhrQ8AXyEwRrbtQoQRRM1g
https://maps.google.com/?cid=14329513505447786896,Bel-Taxi Drummondville 24/7,https://www.beltaxi5etoiles.com/,(450) 418-4848,+1 450-418-4848,,"establishment,point_of_interest","1030 Bd Saint-Joseph, Drummondville, QC J2C 2C6, Canada",45.8888316,-72.5066429,5,1,ChIJs2VjBXQTyEwRkLlguJyo3MY
https://maps.google.com/?cid=14057028113923818448,Taxi Informatique,,,,,"establishment,point_of_interest","735 Rue du Chenin, Drummondville, QC J2B 0Y3, Canada",45.8418463,-72.4634277,,,ChIJ4RRNEiUXyEwR0MMboJeYFMM
https://maps.google.com/?cid=2225226558550154440,Taxi Union St-Jean,https://www.taxisaint-jean.com/,(450) 357-7777,+1 450-357-7777,,"establishment,point_of_interest","855 Chemin du Grand Bernier N, Saint-Jean-sur-Richelieu, QC J3B 2N2, Canada",45.3290799,-73.297167,3.2,159,ChIJp0NmJiSiyUwRyJwl58OX4R4
https://maps.google.com/?cid=6835620569129492164,Taxi Saint-Jean 2013 Inc.,https://www.taxisaint-jean.com/,(450) 357-1000,+1 450-357-1000,,"establishment,point_of_interest","855 Chemin du Grand Bernier N bureau 202, Saint-Jean-sur-Richelieu, QC J3B 8H8, Canada",45.3290799,-73.297167,3.2,281,ChIJw0cjrXGhyUwRxB5R4rAA3V4
https://maps.google.com/?cid=14629598998353428020,Primo Taxi St-Jean,https://primotaxistjean.my.canva.site/,(450) 517-8017,+1 450-517-8017,,"establishment,point_of_interest","521 Bd du Séminaire N #304-B, Saint-Jean-sur-Richelieu, QC J3B 5L8, Canada",45.3161809,-73.2638843,4.4,87,ChIJJVJgP13XWyYRND5EL8fGBss
https://maps.google.com/?cid=6830609022484754492,Confort Taxi St- Jean,,(514) 213-5117,+1 514-213-5117,,"establishment,point_of_interest","395 Rue de la Tramontane, Saint-Jean-sur-Richelieu, QC J2W 2X9, Canada",45.3579908,-73.3139354,4.5,27,ChIJl7RVs9uhyUwRPDDIQLcyy14
https://maps.google.com/?cid=15250440556419918910,Association Des Proprietaires,,(450) 346-6666,+1 450-346-6666,,"establishment,point_of_interest","258 Rue Champlain, Saint-Jean-sur-Richelieu, QC J3B 6V9, Canada",45.3083417,-73.2523054,2,6,ChIJR3sd41GiyUwRPqyeweJypNM
https://maps.google.com/?cid=490399788006808970,Taxi Trois Mille Inc,http://www.taxi3000granby.com/,(450) 372-3000,+1 450-372-3000,,"establishment,point_of_interest","12 Rue du Centre, Granby, QC J2G 5B3, Canada",45.4006523,-72.72690779999999,3.5,229,ChIJf9WLBkfOyUwRip0SSgJAzgY
https://maps.google.com/?cid=9565992368268632074,Taxi Dr,,(450) 777-7766,+1 450-777-7766,,"establishment,point_of_interest","84 Rue du Centre, Granby, QC J2G 5B6, Canada",45.4027737,-72.7255785,3.2,61,ChIJkYxhb1fOyUwRCuC_SmA7wYQ
https://maps.google.com/?cid=12200395645137376656,Suprême Taxi van 2000,https://taxivan2000.ca/,(450) 378-2000,+1 450-378-2000,,"establishment,point_of_interest","529 Rue Principale, Granby, QC J2G 5Y3, Canada",45.4059618,-72.7376269,3.7,12,ChIJAYBkWGHPyUwRkNWi4zKDUKk
https://maps.google.com/?cid=6547714689669188765,Taxi Sainte-Thérèse et Blainville Inc.,https://www.taxistethereseblainville.ca/,(438) 282-8161,+1 438-282-8161,,"establishment,point_of_interest","140 Rue Blainville E, Sainte-Thérèse, QC J7E 1M5, Canada",45.6397784,-73.8297727,4.2,23,ChIJx2KE59v0VUoRncxWqNEn3lo
https://maps.google.com/?cid=9169801377462433806,Taxi Bonjour Saint Jérôme | Réservation Aéroport,https://tbsj.ca/,(514) 565-1126,+1 514-565-1126,,"establishment,point_of_interest","1002 Rue Léopold-Lecourt, Saint-Jérôme, QC J5L 1W9, Canada",45.8034278,-74.0463832,4.7,270,ChIJ5aoOVB0tz0wRDjiJ5MStQX8
https://maps.google.com/?cid=17339274629737838288,Taxi Tal Saint Jérôme/Réservation Aéroport/minivan,http://taxital.net/,(514) 244-0873,+1 514-244-0873,,"establishment,point_of_interest","1630 Rue des Mandolines, Saint-Jérôme, QC J7Z 7H6, Canada",45.7749424,-73.97165509999999,4.8,50,ChIJ1SyzIwDTyEwR0HZ3iGh6ofA
https://maps.google.com/?cid=7900669487539851758,Taxi Autoboss inc - Résérvation,,(514) 992-7090,+1 514-992-7090,,"establishment,point_of_interest","256 Rue de Saint-Janvier, Saint-Jérôme, QC J7Z 2J7, Canada",45.7731822,-74.0008457,5,5,ChIJDY4nbE0tz0wR7pGUFArRpG0
https://maps.google.com/?cid=8017053602168067926,Taxi Bonjour | saint Jérome et rive nord,,(514) 545-6651,+1 514-545-6651,,"establishment,point_of_interest","604 Av. 111e, Saint-Jérôme, QC J7Y 5A9, Canada",45.8057053,-74.001993,3.3,28,ChIJdRInp_ktz0wRVld-ZsZLQm8
https://maps.google.com/?cid=9720751776019077334,TAXI VILLE SAINT JEROME,,(450) 898-9895,+1 450-898-9895,,"establishment,point_of_interest","2084 Rue des Artisans, Saint-Jérôme, QC J7Y 0L9, Canada",45.7990949,-73.98915579999999,,,ChIJp1ENWZAtz0wR1lhdzzwM54Y
https://maps.google.com/?cid=15224273037155304034,Transport adapté et collectif MRC,https://tacrdn.ca/,(450) 436-9321,+1 450-436-9321,,"establishment,point_of_interest","349 Rue Labelle, Saint-Jérôme, QC J7Z 5L2, Canada",45.7774291,-74.003817,3.6,41,ChIJ9_chm88xz0wRYgIzZ6p7R9M
https://maps.google.com/?cid=4085309510882350321,Taxi Montcalm,http://taximontcalm.com/,(450) 439-2209,+1 450-439-2209,,"establishment,point_of_interest","153 Rue Saint-Georges, Saint-Jérôme, QC J7Z 4Z7, Canada",45.77298039999999,-74.0021453,,,ChIJf19mZKcsz0wR8dSq8VrvsTg
https://maps.google.com/?cid=4676590831811342888,Taxi Bleu - (Sur Réservation),https://www.facebook.com/share/16mEktstVx/?mibextid=wwXIfr,(438) 838-2431,+1 438-838-2431,,"establishment,point_of_interest","16830 Rue Calixa-Lavallée, Mirabel, QC J7J 0B6, Canada",45.6615384,-73.93725289999999,,,ChIJ4Tv2JQApyUwRKLL2eZWW5kA
https://maps.google.com/?cid=12972414741900961254,Coop Taxi Energie Inc,,(819) 536-2525,+1 819-536-2525,,"establishment,point_of_interest","762 5e rue de la Pointe, Shawinigan, QC G9N 1E9, Canada",46.5405678,-72.750869,2,1,ChIJL9PjoLlOxkwR5iUMGnpGB7Q
https://maps.google.com/?cid=8455872372453142660,Taxis 800 de Rimouski Inc (Les),,(418) 723-3344,+1 418-723-3344,,"establishment,point_of_interest","55 Rue de l'Évêché E, Rimouski, QC G5L 1X7, Canada",48.4501656,-68.5214737,3,164,ChIJgVlclb3ZlUwRhPAbIh9LWXU
